{
    "name":"kilifi County",
    "lon":40.2932,
    "lat": -3.1539,
    "projectNumber":"80,000",
    "totalSpent":"75,000,000,000",
   " totalapproved":20,
   "approvalrate":75,
    "subCounty":[
        {
            "Name":"Ganze Sub-County",
            "lat":-3.536730,
            "lon":39.692370,
            "wards":[
                {
                   "Name":"Bamba",
                   "lat":-3.5424195273650936,
                   "lon":39.52271463910227 
                },
                {
                   "Name":"Ganze",
                   "lat":-3.543576174276269,
                   "lon":39.68299670174134
                },
                {
                   "Name":"Jaribuni",
                   "lat":-3.6350635268615012,
                   "lon":39.734458923339844
                },
                {
                   "Name":"Sokoke",
                   "lat":-3.5317149846555385, 
                   "lon":39.81742359503702
                }
                
            ]
        },
        {
            "Name":"Malindi Sub-County",
            "lat":-3.213190,
            "lon":40.118000,
            "wards":[
                {"Name": "Jilore",
                "lat": -3.1847372849216034,
                "lon": 39.899940490722656
                },
                {"Name": "Kakuyuni",
                "lat": -3.222554337514064,
                "lon":  40.0010161789435
                },
                {"Name": "Ganda",
                "lat": -3.2166190605239255, 
                "lon": 40.06620097936667
                },
                {"Name": "Malindi town",
                "lat": -3.224066545407254, 
                "lon": 40.076405074880235
                },
                {"Name": "Shella",
                "lat": -3.244904773677602, 
                "lon": 40.11693998874619 
                }
            ]
           
        },
        {
            "Name":"Kaloleni Sub-County",
            "lat":"-3.744",
            "lon":"39.722",
            "wards":[
                {"Name": "Kaloleni",
                "lat": -3.8141991639728654,
                "lon": 39.632320404052734
                },
                {"Name": "Kayafungo",
                "lat": -3.816682737048665,
                "lon":  39.5163631439209
                },
                {"Name": "Mariakani",
                "lat": -3.8660101427599476,
                "lon": 39.473576545715325
                },
                {"Name": "Mwanamwinga",
                "lat": -3.7522359866240578,
                "lon": 39.546661376953125
                }
            ]
           
        },
        {
            "Name":"Kilifi North Sub-County",
            "lat":"-3.581297874802858",
            "lon":"39.79346292313003",
            "wards":[
                {"Name": "Tezo",
                "lat": -3.5338101318623734,
                "lon": 39.84964370727539
                },
                {"Name": "Sokoni",
                "lat": -3.62512714335925,
                "lon":  39.873247146606445
                },
                {"Name": "Kibarani",
                "lat": -3.6012279813684387,
                "lon": 39.844322204589844
                },
                {"Name": "Dabaso",
                "lat": -3.354202186673276,
                "lon": 39.99845789337886
                },
                {"Name": "Watamu",
                "lat": -3.3500354824389063,
                "lon": 40.0162410736084
                },
                {"Name": "Matsangoni",
                "lat": -3.4017015747197306,
                "lon": 39.925689697265625
                },
                {"Name": "Mnarani",
                    "lat": -3.6418304840146227,
                    "lon": 39.847283363342285
                }
                
            ]
           
        },
        {
            "Name":"Magarini Sub-County",
            "lat":"-3.023276431920616",
            "lon":"40.06700513752723",
            "wards":[
                {"Name": "Adu",
                "lat": -2.84862349001268,
                "lon": 39.96709648145804
                },
                {"Name": "Garashi",
                "lat": -3.115681319979722, 
                "lon":  39.88346169500016
                },
                {"Name": "Gongoni",
                "lat": -3.036640429962965,
                "lon": 40.136661529541016
                },
                {"Name": "Sabaki",
                "lat": -3.1743043531579036, 
                "lon": 40.0956465303571
                },
                {"Name": "Magarani",
                "lat": -3.033726280241309,
                "lon": 40.06645202636719
                },
                {"Name": "Marafa",
                "lat": -3.034240542527923,
                "lon": 39.95006561279297
                }
                
            ]
        },
        {
            "Name":"Kilifi South Sub-County",
            "lat":"-3.776113008337626",
            "lon":"39.83224031160767",
            "wards":[
                {"Name": "Junju",
                "lat": -3.8501674502679974,
                "lon": 39.73355770111084
                },
                {"Name": "Mwarakaya",
                "lat": -3.7998970691480882,
                "lon":  39.6999979019165
                },
                {"Name": "Shimo La Tewa",
                "lat": -3.947359820348865,
                "lon": 39.74235534667969
                },
                {"Name": "chasimba",
                "lat": -3.716777535844104,
                "lon": 39.6999979019165
                },
                {"Name": "Mtepeni",
                "lat": -3.9161758719358097,
                "lon": 39.75951424873872
                } 
            ]
        },
        {
            "Name":"Rabai Sub-County",
            "lat":"-3.932021734071574",
            "lon":"39.54882822876534",
            "wards":[
                {"Name": "Mwawesa",
                "lat": -3.924625521614381,
                "lon": 39.62785720825195
                },
                {"Name": "Ruruma",
                "lat": -3.9004776791681173,
                "lon":  39.598116874694824
                },
                {"Name": "kambe-Ribe",
                "lat": -3.8833511289297062,
                "lon": 39.63292121887207
                },
                {"Name": "Rabai Kisurutini",
                "lat": -3.9228273020359867,
                "lon": 39.5921516418457
                }
            ]
        }
    ]
}